[
  {
    "id": "1",
    "name": "Arat Kilo Library",
    "latitude": 9.0385,
    "longitude": 38.8390,
    "category": "academic"
  },
  {
    "id": "2",
    "name": "Block 1 Dorm",
    "latitude": 9.0390,
    "longitude": 38.8395,
    "category": "housing"
  },
  {
    "id": "3",
    "name": "Registrar Office",
    "latitude": 9.0380,
    "longitude": 38.8385,
    "category": "offices"
  },
  {
    "id": "4",
    "name": "Campus Clinic",
    "latitude": 9.0395,
    "longitude": 38.8380,
    "category": "clinic"
  },
  {
    "id": "5",
    "name": "Science Faculty",
    "latitude": 9.038833,
    "longitude": 38.839194,
    "category": "academic"
  }
]
